,City,Lat,Lng,Max Temp,Humidity,Cloudiness,Wind Speed,Country,Date
0,Albany,42.6001,-73.9662,48.0,70,99,3.85,US,1618703199
1,Vestmanna,62.1564,-7.1664,46.4,81,100,26.46,FO,1618703590
2,Busselton,-33.65,115.3333,62.28,69,0,7.07,AU,1618703590
3,Faanui,-16.4833,-151.75,82.35,73,79,8.72,PF,1618703591
4,Yellowknife,62.456,-114.3525,35.6,64,75,10.36,CA,1618703288
5,Gdańsk,54.3521,18.6464,42.01,93,0,4.61,PL,1618703591
6,Rapid Valley,44.0625,-103.1463,53.6,28,20,11.5,US,1618703591
7,Sitka,57.0531,-135.33,53.6,58,75,3.44,US,1618703465
8,Puerto Ayora,-0.7393,-90.3518,77.0,94,92,4.0,EC,1618703431
9,Ushuaia,-54.8,-68.3,53.6,54,40,10.36,AR,1618703323
10,Hithadhoo,-0.6,73.0833,81.7,62,29,4.41,MV,1618703430
11,Woodward,36.4337,-99.3904,50.0,53,90,11.5,US,1618703592
12,Moundou,8.5667,16.0833,86.49,35,96,4.76,TD,1618703593
13,Cidreira,-30.1811,-50.2056,70.3,86,100,8.55,BR,1618703424
14,Cape Town,-33.9258,18.4232,70.0,88,0,4.61,ZA,1618703432
15,Butaritari,3.0707,172.7902,82.42,76,98,6.73,KI,1618703423
16,Saint Paul Harbor,57.79,-152.4072,42.8,75,90,3.44,US,1618703425
17,Hermosillo,29.0667,-110.9667,91.4,7,1,6.91,MX,1618703374
18,Port Elizabeth,-33.918,25.5701,53.6,94,0,6.29,ZA,1618703368
19,Shīeli,44.1667,66.75,61.57,38,57,3.56,KZ,1618703594
20,Hobart,-42.8794,147.3294,62.01,58,75,10.36,AU,1618703347
21,Departamento de Maldonado,-34.6667,-54.9167,64.99,88,20,6.91,UY,1618703594
22,Half Moon Bay,37.4636,-122.4286,71.6,87,90,14.97,US,1618703406
23,Santa Maria,-29.6842,-53.8069,69.8,83,20,4.61,BR,1618703595
24,Chlórakas,34.8042,32.4083,69.8,43,0,8.05,CY,1618703595
25,Lebu,-37.6167,-73.65,55.27,91,85,1.54,CL,1618703444
26,Hilo,19.7297,-155.09,82.4,54,1,9.22,US,1618703397
27,Bluff,-46.6,168.3333,55.99,81,91,10.0,NZ,1618703403
28,Mataura,-46.1927,168.8643,55.99,81,98,10.0,NZ,1618703399
29,La Ronge,55.1001,-105.2842,46.4,42,100,13.8,CA,1618703596
30,Eilat,29.5581,34.9482,78.8,29,0,13.8,IL,1618703596
31,Kapaa,22.0752,-159.319,73.99,64,75,14.97,US,1618703427
32,Sistranda,63.7256,8.834,37.4,87,0,8.05,NO,1618703597
33,Pevek,69.7008,170.3133,24.37,88,71,15.43,RU,1618703597
34,Chui,-33.6971,-53.4616,64.04,90,4,6.53,UY,1618703598
35,Jinka,5.65,36.65,62.55,87,100,3.78,ET,1618703598
36,Solnechnyy,50.7214,136.6319,43.83,71,22,2.68,RU,1618703598
37,Fairbanks,64.8378,-147.7164,51.8,30,1,8.05,US,1618703275
38,Punta Arenas,-53.15,-70.9167,50.0,71,75,5.75,CL,1618703599
39,San Patricio,28.017,-97.5169,66.2,59,90,8.05,US,1618703519
40,Avilés,43.5547,-5.9248,44.6,76,0,6.91,ES,1618703599
41,Çayeli,41.0923,40.7292,58.42,79,98,8.23,TR,1618703354
42,Lompoc,34.6391,-120.4579,59.0,67,1,17.27,US,1618703397
43,Atuona,-9.8,-139.0333,80.64,74,50,19.3,PF,1618703400
44,Nikolskoye,59.7035,30.7861,46.4,39,0,6.71,RU,1618703437
45,Honningsvåg,70.9821,25.9704,36.21,78,14,15.86,NO,1618703600
46,Nizhniy Lomov,53.5304,43.6766,47.32,90,100,2.26,RU,1618703601
47,Ystad,55.4297,13.8204,46.4,53,0,9.22,SE,1618703601
48,Vaxjo,56.8777,14.8091,41.0,56,75,6.91,SE,1618703602
49,Flinders,-34.5833,150.8552,66.0,71,10,3.0,AU,1618703530
50,Rikitea,-23.1203,-134.9692,77.58,66,63,5.03,PF,1618703398
51,Aklavik,68.2191,-135.0107,48.2,31,20,6.91,CA,1618703602
52,Sur,22.5667,59.5289,81.43,57,61,3.51,OM,1618703603
53,Aswān,24.0934,32.907,77.05,20,0,8.34,EG,1618703603
54,Manggar,-2.8833,108.2667,79.48,78,100,4.76,ID,1618703603
55,Kargopol',61.5071,38.9456,33.51,91,24,4.12,RU,1618703604
56,Bengkulu,-3.8004,102.2655,75.65,85,100,1.32,ID,1618703416
57,Natal,-5.795,-35.2094,78.8,89,75,3.44,BR,1618703349
58,Tuktoyaktuk,69.4541,-133.0374,24.8,86,75,10.36,CA,1618703604
59,Dikson,73.5069,80.5464,-16.02,100,44,2.68,RU,1618703411
60,Newport,51.5877,-2.9984,43.0,71,42,1.39,GB,1618703605
61,Itarema,-2.9248,-39.9167,78.55,83,10,11.12,BR,1618703605
62,Kudahuvadhoo,2.6708,72.8944,82.38,68,25,9.04,MV,1618703605
63,Leh,34.1667,77.5833,34.21,83,96,6.11,IN,1618703606
64,Mahébourg,-20.4081,57.7,77.0,94,75,8.05,MU,1618703426
65,Meïganga,6.5167,14.3,68.16,84,100,3.15,CM,1618703606
66,Khatanga,71.9667,102.5,-0.87,95,100,12.62,RU,1618703392
67,Nuevo Progreso,23.1667,-97.95,64.99,69,88,5.99,MX,1618703607
68,Mackay,-21.15,149.2,73.4,78,75,13.8,AU,1618703507
69,Touros,-5.1989,-35.4608,77.0,88,75,3.44,BR,1618703607
70,Avarua,-21.2078,-159.775,82.4,69,40,9.22,CK,1618703411
71,Coyhaique,-45.5752,-72.0662,50.0,87,75,4.61,CL,1618703608
72,Colesberg,-30.72,25.0972,55.11,32,3,3.2,ZA,1618703608
73,Rio Grande,-32.035,-52.0986,68.0,94,11,11.07,BR,1618703375
74,Hermanus,-34.4187,19.2345,70.0,36,0,1.01,ZA,1618703401
75,Kaitangata,-46.2817,169.8464,60.01,60,89,4.0,NZ,1618703609
76,New Norfolk,-42.7826,147.0587,62.01,77,100,3.0,AU,1618703608
77,Westport,41.1415,-73.3579,51.01,58,95,3.76,US,1618703609
78,Shache,38.4167,77.2406,57.33,40,97,4.72,CN,1618703609
79,Ust'-Kulom,61.6864,53.6902,26.2,78,64,8.81,RU,1618703610
80,Cabo San Lucas,22.8909,-109.9124,80.01,34,1,10.36,MX,1618703441
81,Richards Bay,-28.783,32.0377,59.9,77,1,8.52,ZA,1618703610
82,Nizhnyaya Omka,55.4338,74.9426,36.55,79,98,10.67,RU,1618703611
83,Mount Gambier,-37.8333,140.7667,57.2,94,90,8.05,AU,1618703266
84,Matara,5.9485,80.5353,76.05,91,97,6.53,LK,1618703399
85,Veinticinco de Mayo,-35.4323,-60.1727,70.0,64,49,4.0,AR,1618703611
86,Hualmay,-11.0964,-77.6139,68.22,85,36,10.11,PE,1618703437
87,George Town,5.4112,100.3354,80.01,89,20,5.75,MY,1618703612
88,Abbeville,50.1,1.8333,39.0,83,56,4.56,FR,1618703612
89,Madang,-5.2246,145.7966,76.28,92,99,7.0,PG,1618703612
90,Qaanaaq,77.484,-69.3632,-0.65,96,100,5.86,GL,1618703408
91,Puksoozero,62.5903,40.6066,32.7,94,14,4.72,RU,1618703613
92,Mayo,38.8876,-76.5119,55.4,62,1,4.36,US,1618703613
93,Ostrovnoy,68.0531,39.5131,29.08,83,96,6.35,RU,1618703614
94,Qasigiannguit,68.8193,-51.1922,8.6,61,90,12.66,GL,1618703614
95,Tura,25.5198,90.2201,66.36,88,6,3.76,IN,1618703614
96,Tanout,14.9709,8.8879,83.17,7,100,5.86,NE,1618703615
97,Port Alfred,-33.5906,26.891,65.28,60,34,12.5,ZA,1618703238
98,Longyan,25.1072,117.0225,66.56,87,91,2.53,CN,1618703615
99,Tommot,58.9564,126.2925,30.58,68,100,7.2,RU,1618703560
100,Río Cuarto,-33.1307,-64.3499,73.4,64,75,13.8,AR,1618703421
101,Bredasdorp,-34.5322,20.0403,42.8,93,0,5.75,ZA,1618703413
102,Clyde River,70.4692,-68.5914,6.8,85,90,14.97,CA,1618703475
103,Castro,-24.7911,-50.0119,58.86,93,66,2.84,BR,1618703413
104,Bathsheba,13.2167,-59.5167,80.6,61,40,18.41,BB,1618703616
105,Korsholm,63.1142,21.6822,33.01,93,0,4.32,FI,1618703335
106,Okato,-39.2,173.8833,57.99,77,99,17.0,NZ,1618703617
107,Chokurdakh,70.6333,147.9167,17.11,86,100,5.21,RU,1618703617
108,Porto Velho,-8.7619,-63.9039,77.0,94,75,1.14,BR,1618703618
109,Faya,18.3851,42.4509,57.2,71,40,14.97,SA,1618703438
110,Cherskiy,68.75,161.3,27.3,69,16,28.48,RU,1618703618
111,Camargo,27.6667,-105.1667,85.17,8,19,17.63,MX,1618703618
112,Yangi Marg`ilon,40.4272,71.7189,53.6,58,99,4.61,UZ,1618703619
113,Tuatapere,-46.1333,167.6833,55.99,82,94,8.01,NZ,1618703619
114,Codrington,-38.2667,141.9667,60.78,75,51,10.11,AU,1618703395
115,Akdepe,42.0551,59.3788,57.2,47,0,2.3,TM,1618703620
116,Yar-Sale,66.8333,70.8333,-9.13,98,41,9.66,RU,1618703620
117,Broken Hill,-31.95,141.4333,55.4,67,0,10.36,AU,1618703620
118,Opuwo,-18.0607,13.84,70.18,53,95,4.72,NA,1618703621
119,San Felipe,10.3399,-68.7425,73.33,94,83,4.94,VE,1618703621
120,Kirakira,-10.4544,161.9205,84.81,72,93,10.02,SB,1618703621
121,Jamestown,42.097,-79.2353,42.8,70,90,8.05,US,1618703622
122,Geraldton,-28.7667,114.6,68.0,40,54,5.75,AU,1618703404
123,Nishihara,26.1842,127.7558,68.0,55,40,19.57,JP,1618703622
124,Virginia Beach,36.8529,-75.978,55.99,71,75,1.99,US,1618703619
125,Muscat,23.6139,58.5922,78.8,18,0,3.44,OM,1618703623
126,Upernavik,72.7868,-56.1549,5.7,88,100,6.73,GL,1618703623
127,Sabha,27.0377,14.4283,80.94,21,100,12.95,LY,1618703623
128,Vaini,-21.2,-175.2,78.8,69,20,11.5,TO,1618703402
129,Krasnosel'kup,65.7,82.4667,-11.72,95,63,11.83,RU,1618703624
130,Lavrentiya,65.5833,-171.0,31.96,86,77,9.86,RU,1618703624
131,Cabañas,22.9758,-82.9219,84.2,65,40,9.22,CU,1618703625
132,Dinguiraye,11.3,-10.7167,77.23,64,98,5.84,GN,1618703625
133,Tiksi,71.6872,128.8694,6.96,86,100,11.61,RU,1618703625
134,Nan,18.8333,100.6667,73.4,94,75,1.3,TH,1618703626
135,Ponta do Sol,32.6667,-17.1,57.0,69,95,1.99,PT,1618703626
136,Iqaluit,63.7506,-68.5145,17.6,67,20,2.3,CA,1618703404
137,Cayenne,4.9333,-52.3333,81.0,78,75,6.91,GF,1618703626
138,Puyang,29.4603,119.8861,58.86,68,90,3.22,CN,1618703627
139,Galveston,29.3669,-94.9669,61.0,84,95,1.01,US,1618703627
140,Narsaq,60.9167,-46.05,24.8,39,0,2.3,GL,1618703627
141,São Filipe,14.8961,-24.4956,72.7,70,0,9.24,CV,1618703628
142,Baghdad,33.3406,44.4009,69.8,30,0,6.91,IQ,1618703449
143,Kautokeino,69.0125,23.0412,21.54,99,84,3.47,NO,1618703628
144,Saskylakh,71.9167,114.0833,7.21,93,100,12.33,RU,1618703436
145,Tabuk,17.4189,121.4443,79.57,64,86,9.31,PH,1618703472
146,Griffith,41.5284,-87.4237,48.99,49,1,8.05,US,1618703629
147,Hong Kong,22.2855,114.1577,75.0,59,94,1.99,HK,1618703459
148,Jardim,-21.4803,-56.1381,75.15,68,64,3.8,BR,1618703629
149,Denpasar,-8.65,115.2167,80.6,89,20,1.14,ID,1618703630
150,Ust-Tsilma,65.441,52.1498,18.5,87,100,8.23,RU,1618703630
151,Lodja,-3.4833,23.4333,70.34,98,58,2.95,CD,1618703630
152,Saint-Philippe,-21.3585,55.7679,75.2,94,75,6.91,RE,1618703414
153,Tasiilaq,65.6145,-37.6368,23.0,93,90,2.24,GL,1618703439
154,Coffs Harbour,-30.3,153.1333,66.2,59,75,19.57,AU,1618703631
155,Adré,13.4667,22.2,74.7,10,15,10.36,TD,1618703631
156,Naberera,-4.2,36.9333,61.14,94,58,8.5,TZ,1618703632
157,Hīt,33.6416,42.8251,76.86,18,0,6.76,IQ,1618703632
158,Saint George,37.1041,-113.5841,68.0,18,40,11.5,US,1618703414
159,Pacific Grove,36.6177,-121.9166,60.01,72,20,12.66,US,1618703632
160,Bud,39.447,-86.1758,57.2,41,1,10.36,US,1618703633
161,Arraial do Cabo,-22.9661,-42.0278,77.0,83,40,18.41,BR,1618703633
162,Olavarría,-36.8927,-60.3225,68.0,72,47,1.01,AR,1618703633
163,Madimba,-10.4,40.3333,75.2,88,40,24.16,TZ,1618703634
164,Wanaka,-44.7,169.15,50.72,81,97,7.52,NZ,1618703580
165,Klaksvík,62.2266,-6.589,46.4,81,100,26.46,FO,1618703635
166,Letlhakeng,-24.0944,25.0298,58.89,62,10,6.89,BW,1618703635
167,Puerto Nariño,-3.7703,-70.3831,80.6,89,75,2.1,CO,1618703511
168,Hirara,24.8,125.2833,69.8,64,20,19.57,JP,1618703635
169,Borūjerd,33.8973,48.7516,56.91,34,76,4.54,IR,1618703636
170,Kidal,18.4411,1.4078,86.58,11,100,11.48,ML,1618703636
171,Verkhoyansk,67.5447,133.385,15.04,88,100,3.0,RU,1618703636
172,Esperance,-33.8667,121.9,55.4,82,0,10.36,AU,1618703637
173,Ahipara,-35.1667,173.1667,62.42,57,86,7.07,NZ,1618703637
174,Moscow,55.7522,37.6156,50.0,34,0,13.42,RU,1618703572
175,Manaíra,-7.7061,-38.1544,69.64,83,100,4.05,BR,1618703638
176,Port Lincoln,-34.7333,135.8667,62.4,61,20,5.57,AU,1618703479
177,Gravelbourg,49.8834,-106.5512,62.6,20,94,12.66,CA,1618703638
178,Gazojak,41.1875,61.4036,63.21,25,2,7.16,TM,1618703638
179,Kloulklubed,7.0419,134.2556,82.4,78,75,11.5,PW,1618703639
180,Leningradskiy,69.3833,178.4167,34.84,84,97,8.75,RU,1618703639
181,Taoudenni,22.6783,-3.9836,83.1,15,0,9.93,ML,1618703640
182,Marawi,7.9986,124.2928,78.01,91,100,5.99,PH,1618703640
183,Vuktyl,63.8567,57.3094,23.43,81,76,11.52,RU,1618703640
184,Bethel,41.3712,-73.414,48.0,63,96,2.95,US,1618703402
185,Killybegs,54.6333,-8.45,45.0,93,100,10.0,IE,1618703641
186,Saint-Joseph,-21.3667,55.6167,71.6,94,75,6.91,RE,1618703641
187,Olafsvik,64.8945,-23.7142,37.44,62,100,17.34,IS,1618703642
188,Mahon,39.8885,4.2658,44.6,93,40,5.75,ES,1618703425
189,Champerico,14.3,-91.9167,89.6,62,40,11.5,GT,1618703634
190,Los Llanos de Aridane,28.6585,-17.9182,68.0,73,40,14.97,ES,1618703642
191,Aykhal,66.0,111.5,1.02,95,100,18.5,RU,1618703505
192,Carnarvon,-24.8667,113.6333,77.14,55,4,3.67,AU,1618703421
193,Yerbogachën,61.2767,108.0108,8.19,79,48,11.92,RU,1618703643
194,Hasaki,35.7333,140.8333,66.2,37,20,18.41,JP,1618703643
195,Vardø,70.3705,31.1107,34.79,89,81,10.16,NO,1618703412
196,Souillac,-20.5167,57.5167,77.0,94,75,8.05,MU,1618703644
197,Vila,42.0304,-8.1588,48.0,80,20,1.99,PT,1618703644
198,Pochutla,15.7432,-96.4661,86.0,58,1,11.5,MX,1618703644
199,Alamosa,37.4695,-105.87,28.4,93,90,13.8,US,1618703645
200,Luau,-10.7073,22.2247,61.77,96,74,3.24,AO,1618703645
201,Hamilton,39.1834,-84.5333,53.01,82,90,3.44,US,1618703349
202,Kavaratti,10.5669,72.642,83.66,69,6,5.61,IN,1618703396
203,Thompson,55.7435,-97.8558,30.2,69,90,14.97,CA,1618703478
204,Tairua,-37.0167,175.85,63.0,69,25,8.01,NZ,1618703646
205,Jiamusi,46.8333,130.35,47.75,59,8,4.81,CN,1618703646
206,Havøysund,70.9963,24.6622,32.0,86,0,11.77,NO,1618703647
207,Barrow,71.2906,-156.7887,30.2,80,1,11.5,US,1618703408
208,Benalla,-36.55,145.9833,50.0,76,4,1.14,AU,1618703647
209,Valparaíso,-33.0393,-71.6273,57.2,88,90,4.61,CL,1618703572
210,Mehamn,71.0357,27.8492,34.79,80,12,11.68,NO,1618703648
211,Rocha,-34.4833,-54.3333,59.14,94,13,3.78,UY,1618703486
212,Port Hardy,50.6996,-127.4199,66.2,45,1,4.61,CA,1618703396
213,West Lafayette,40.4259,-86.9081,62.6,31,1,14.97,US,1618703445
214,Myitkyina,25.3833,97.4,67.84,86,44,1.32,MM,1618703648
215,Amahai,-3.3333,128.9167,87.01,89,70,0.29,ID,1618703649
216,Severo-Kuril'sk,50.6789,156.125,38.12,62,100,7.4,RU,1618703649
217,Kununurra,-15.7667,128.7333,78.8,34,22,10.36,AU,1618703490
218,Christchurch,-43.5333,172.6333,64.0,48,5,4.61,NZ,1618703404
219,Sola,-13.8833,167.55,82.54,74,87,14.27,VU,1618703650
220,Baykit,61.67,96.37,17.65,92,100,5.68,RU,1618703650
221,Airai,-8.9266,125.4092,67.28,65,87,3.4,TL,1618703429
222,Huntsville,34.7304,-86.5861,62.6,51,90,6.91,US,1618703415
223,Qaqortoq,60.7167,-46.0333,24.8,39,0,2.3,GL,1618703651
224,Balkanabat,39.5108,54.3671,69.42,33,3,5.86,TM,1618703651
225,Sørland,67.667,12.6934,41.61,72,57,10.76,NO,1618703541
226,Dzhebariki-Khaya,62.2167,135.8,28.11,81,100,7.38,RU,1618703652
227,Vilyuysk,63.7553,121.6247,13.82,91,100,13.18,RU,1618703652
228,Nanortalik,60.1432,-45.2371,25.2,56,1,27.67,GL,1618703652
229,Ketchikan,55.3422,-131.6461,59.0,51,1,6.91,US,1618703518
230,Constantine,36.365,6.6147,42.8,87,75,2.3,DZ,1618703490
231,Comodoro Rivadavia,-45.8667,-67.5,59.0,72,0,5.86,AR,1618703653
232,Khani,41.9563,42.9566,57.2,82,90,10.36,GE,1618703653
233,Ramnagar,29.4,79.1167,64.49,55,0,6.24,IN,1618703654
234,Vanimo,-2.6741,141.3028,78.8,82,97,4.92,PG,1618703654
235,Bilibino,68.0546,166.4372,21.09,74,27,4.47,RU,1618703654
236,Reftinskiy,57.0901,61.6769,33.8,55,0,4.47,RU,1618703655
237,Kieta,-6.2167,155.6333,85.87,66,93,2.93,PG,1618703487
238,Yatou,37.15,122.3833,52.68,41,0,6.82,CN,1618703655
239,Adolfo López Mateos,28.4667,-107.3,69.01,20,5,11.01,MX,1618703656
240,Antsohihy,-14.8796,47.9875,73.17,95,67,3.09,MG,1618703656
241,Mandalgovi,45.7625,106.2708,45.54,16,65,14.99,MN,1618703480
242,Ilulissat,69.2167,-51.1,8.6,61,90,12.66,GL,1618703656
243,Naze,28.3667,129.4833,62.6,55,75,10.36,JP,1618703657
244,Srednekolymsk,67.45,153.6833,31.48,74,99,18.77,RU,1618703482
245,Ballina,-28.8667,153.5667,66.2,68,96,12.66,AU,1618703657
246,Rio de Janeiro,-22.9028,-43.2075,78.8,83,0,5.75,BR,1618703503
247,Nakusp,50.2499,-117.8023,68.0,26,7,2.3,CA,1618703658
248,São João da Barra,-21.6403,-41.0511,75.24,82,95,13.29,BR,1618703601
249,Banda Aceh,5.5577,95.3222,79.57,79,67,7.52,ID,1618703658
250,Taguatinga,-12.3857,-46.5711,78.3,54,95,2.28,BR,1618703659
251,Longyearbyen,78.2186,15.6401,32.0,69,75,3.44,SJ,1618703659
252,Verkhnyaya Inta,65.9811,60.3094,3.56,88,16,6.2,RU,1618703659
253,Luganville,-15.5333,167.1667,85.03,70,86,9.51,VU,1618703660
254,Kushmurun,52.4503,64.6311,45.52,83,9,3.94,KZ,1618703660
255,Salalah,17.0151,54.0924,78.8,61,0,3.44,OM,1618703442
256,Çorum Province,40.5,34.75,52.12,70,100,3.24,TR,1618703371
257,Takaungu,-3.6837,39.8566,77.52,86,56,12.39,KE,1618703661
258,Asău,46.4333,26.4,42.01,51,93,3.65,RO,1618703661
259,Ancud,-41.8697,-73.8203,46.99,80,100,14.0,CL,1618703394
260,Walvis Bay,-22.9575,14.5053,84.2,26,100,9.22,NA,1618703509
261,Conakry,9.538,-13.6773,80.6,74,20,3.69,GN,1618703662
262,Tautira,-17.7333,-149.15,87.8,66,20,12.66,PF,1618703457
263,Turaif,31.6725,38.6637,69.8,40,0,3.44,SA,1618703662
264,Ribeira Grande,38.5167,-28.7,62.11,91,39,13.18,PT,1618703443
265,Victor Harbor,-35.5667,138.6167,63.0,71,10,6.4,AU,1618703663
266,Makakilo City,21.3469,-158.0858,82.4,65,90,4.61,US,1618703663
267,Shelburne,44.0787,-80.2041,50.0,61,1,8.05,CA,1618703663
268,East London,-33.0153,27.9116,64.04,67,88,12.08,ZA,1618703399
269,Bam,29.106,58.357,73.29,23,89,8.16,IR,1618703664
270,Thanh Hoa,19.8,105.7667,72.45,89,100,2.53,VN,1618703369
271,Acajutla,13.5928,-89.8275,87.8,51,20,2.3,SV,1618703664
272,Havre-St-Pierre,50.2334,-63.5986,33.8,69,1,8.05,CA,1618703665
273,Provideniya,64.3833,-173.3,31.89,90,79,6.02,RU,1618703397
274,Kaeo,-35.1,173.7833,66.99,58,31,1.99,NZ,1618703665
275,Bouna,9.2667,-3.0,77.49,68,98,5.23,CI,1618703665
276,Najrān,17.4924,44.1277,69.8,32,40,4.27,SA,1618703666
277,Kindia,10.0569,-12.8658,75.24,83,96,1.5,GN,1618703666
278,Vila Velha,-20.3297,-40.2925,73.4,94,75,3.44,BR,1618703666
279,Gold Coast,-28.0,153.4333,70.0,60,13,11.5,AU,1618703600
280,Vestmannaeyjar,63.4427,-20.2734,39.99,64,100,19.01,IS,1618703667
281,Izhma,65.0083,53.9113,20.3,89,100,8.43,RU,1618703667
282,Port Macquarie,-31.4333,152.9167,66.99,68,76,5.01,AU,1618703519
283,Praia,14.9215,-23.5087,69.8,78,20,16.11,CV,1618703668
284,Berlevåg,70.8578,29.0864,36.32,84,30,13.09,NO,1618703668
285,Shagonar,51.5333,92.8,34.45,62,8,3.02,RU,1618703668
286,Porbandar,21.6422,69.6093,78.37,83,2,8.75,IN,1618703647
287,Angoram,-4.0625,144.0661,74.5,98,100,0.85,PG,1618703669
288,Mar del Plata,-38.0023,-57.5575,66.99,94,90,5.75,AR,1618703211
289,Kavieng,-2.5744,150.7967,82.92,76,71,10.87,PG,1618703652
290,Isangel,-19.55,169.2667,82.4,78,75,8.05,VU,1618703691
291,Oudtshoorn,-33.5907,22.2014,60.8,59,0,4.61,ZA,1618703691
292,Hutang,31.5333,119.4833,50.0,100,0,2.24,CN,1618703691
293,Gwadar,25.1216,62.3254,79.25,71,25,3.89,PK,1618703692
294,Broome,42.2506,-75.833,43.0,75,90,8.05,US,1618703431
295,Katobu,-4.9408,122.5276,81.7,72,51,2.35,ID,1618703692
296,Muyezerskiy,63.9333,31.65,28.96,97,9,1.95,RU,1618703692
297,Chapais,49.7834,-74.8492,50.0,37,1,5.75,CA,1618703693
298,Lüderitz,-26.6481,15.1594,76.82,38,30,4.41,NA,1618703435
299,Pisco,-13.7,-76.2167,68.0,83,0,24.16,PE,1618703421
300,Arrondissement de Brive-la-Gaillarde,45.25,1.5,39.99,23,7,1.01,FR,1618703693
301,Bandarbeyla,9.4942,50.8122,81.66,71,42,6.17,SO,1618703684
302,Severodvinsk,64.5635,39.8302,30.2,80,0,8.95,RU,1618703644
303,Laguna,38.421,-121.4238,87.8,7,1,9.22,US,1618703470
304,Sept-Îles,50.2001,-66.3821,33.8,75,20,9.22,CA,1618703537
305,Itaituba,-4.2761,-55.9836,73.74,98,93,1.66,BR,1618703571
306,Dingalan,15.3897,121.3929,80.01,74,97,0.38,PH,1618703695
307,Sennar,13.5691,33.5672,86.07,7,40,12.21,SD,1618703695
308,Creston,41.0586,-94.3614,55.4,47,75,17.27,US,1618703695
309,Katsuura,35.1333,140.3,64.99,45,20,27.63,JP,1618703499
310,Curup,-3.4667,102.5333,67.33,96,100,1.32,ID,1618703696
311,Grand Gaube,-20.0064,57.6608,77.0,89,35,3.02,MU,1618703696
312,Koslan,63.4564,48.8989,26.46,74,37,8.14,RU,1618703697
313,Saint-François,46.4154,3.9054,46.4,61,0,5.75,FR,1618703697
314,Kodinsk,58.6881,99.1844,17.01,83,58,3.56,RU,1618703697
315,Dhārchula,29.85,80.5333,53.04,65,4,8.19,IN,1618703698
316,Trujillo,-8.116,-79.03,64.4,94,75,10.36,PE,1618703698
317,Ilhabela,-23.7781,-45.3581,72.18,84,100,1.92,BR,1618703698
318,Saint-Augustin,51.226,-58.6502,33.12,76,4,13.96,CA,1618703516
319,Agirish,61.9247,63.0231,18.14,86,100,12.5,RU,1618703699
320,Mossamedes,-15.1961,12.1522,82.31,65,0,1.74,AO,1618703699
321,Bella Union,-30.2752,-57.6007,70.5,70,63,7.49,UY,1618703700
322,Arman',59.7,150.1667,28.96,92,100,4.16,RU,1618703700
323,Batabanó,22.7164,-82.2881,84.2,65,40,9.22,CU,1618703700
324,Bambous Virieux,-20.3428,57.7575,77.0,94,75,8.05,MU,1618703701
325,Kamenka,51.3223,42.7678,36.0,95,1,3.78,RU,1618703701
326,Camocim,-2.9022,-40.8411,77.54,88,19,11.1,BR,1618703702
327,Kourou,5.1552,-52.6478,81.0,78,75,6.91,GF,1618703702
328,Bafra,41.5678,35.9069,55.0,93,75,2.3,TR,1618703465
329,Patan,27.6667,85.3333,53.6,87,20,2.3,NP,1618703695
330,Talnakh,69.4865,88.3972,-20.58,93,65,1.61,RU,1618703702
331,Anchorage,61.2181,-149.9003,53.6,28,1,6.91,US,1618703431
332,Nome,64.5011,-165.4064,33.01,80,1,11.5,US,1618703518
333,Dolores,-36.3132,-57.6792,62.17,94,79,6.44,AR,1618703704
334,Tanhaçu,-14.0214,-41.2481,74.5,70,85,8.03,BR,1618703704
335,Oktyabr'skoye,43.0645,44.7417,50.0,93,100,4.47,RU,1618703705
336,Zavallya,48.2135,30.0156,40.55,88,98,2.51,UA,1618703705
337,Luanda,-8.8368,13.2343,82.4,69,20,2.3,AO,1618703485
338,Poum,-20.2333,164.0167,80.02,71,62,17.6,NC,1618703430
339,Oyama,36.3,139.8,69.01,82,75,6.91,JP,1618703706
340,Zanesville,39.9404,-82.0132,51.8,76,90,9.22,US,1618703660
341,Voh,-20.9667,164.7,82.42,62,52,4.79,NC,1618703706
342,Pundaguitan,6.3711,126.1689,83.37,73,100,10.87,PH,1618703706
343,Nador,35.174,-2.9287,57.2,88,0,3.44,MA,1618703636
344,Semīrom,31.4167,51.5667,51.94,43,100,3.56,IR,1618703665
345,Boa Vista,2.8197,-60.6733,84.2,61,20,5.75,BR,1618703707
346,São José da Coroa Grande,-8.8978,-35.1478,76.55,87,68,5.86,BR,1618703707
347,Abdulino,53.7,53.6667,42.37,64,0,8.05,RU,1618703708
348,Tarko-Sale,64.9225,77.785,-10.7,99,13,10.02,RU,1618703708
349,Vostok,46.4856,135.8833,44.49,44,18,4.79,RU,1618703708
350,Nchelenge,-9.3451,28.734,66.7,83,63,7.4,ZM,1618703709
351,Ascoli Piceno,42.8548,13.5749,45.0,68,62,4.29,IT,1618703709
352,Auriflama,-20.6856,-50.5547,65.98,93,51,4.05,BR,1618703709
353,Korla,41.7597,86.1469,60.26,26,96,11.03,CN,1618703402
354,Acapulco de Juárez,16.8634,-99.8901,84.2,65,40,11.5,MX,1618703468
355,Barcelos,41.5388,-8.6151,55.0,81,0,2.3,PT,1618703710
356,Palmer,42.1584,-72.3287,44.01,75,100,2.37,US,1618703401
357,Palma de Mallorca,39.5694,2.6502,44.01,93,20,2.3,ES,1618703483
358,Baracoa,20.3467,-74.4958,77.94,72,0,4.54,CU,1618703711
359,Kalmunai,7.4167,81.8167,77.61,85,79,5.95,LK,1618703412
360,Kobyzhcha,50.8285,31.5044,35.6,93,75,4.47,UA,1618703711
361,Kabarnet,0.4919,35.743,55.87,74,100,1.1,KE,1618703711
362,Koumac,-20.5667,164.2833,81.68,64,68,1.19,NC,1618703712
363,Togur,58.3631,82.8265,31.23,92,100,14.25,RU,1618703712
364,Daru,-9.0763,143.2092,79.11,88,100,8.08,PG,1618703713
365,Panlaitan,12.1191,119.8486,82.74,72,99,10.2,PH,1618703713
366,Carballo,43.213,-8.691,48.2,61,0,3.44,ES,1618703713
367,Poya,-21.35,165.15,81.45,63,29,5.19,NC,1618703714
368,Voss,60.623,6.4229,42.01,77,6,4.74,NO,1618703714
369,Lumding,25.7535,93.1732,65.88,86,69,1.59,IN,1618703714
370,Puerto Ayacucho,5.6639,-67.6236,79.39,81,96,4.88,VE,1618703715
371,General Roca,-39.0333,-67.5833,66.2,45,0,5.75,AR,1618703715
372,Athens,37.9795,23.7162,60.01,77,20,3.4,GR,1618703449
373,Uglegorsk,49.0833,142.0333,41.85,85,100,7.81,RU,1618703716
374,Longaví,-35.9667,-71.6833,61.59,62,95,4.61,CL,1618703716
375,Ust'-Barguzin,53.45,108.9833,28.78,68,100,6.82,RU,1618703716
376,Masty,53.4122,24.5387,44.69,82,100,4.81,BY,1618703717
377,Kéfalos,36.7453,26.9589,66.2,55,40,17.27,GR,1618703717
378,Abaza,52.655,90.0928,30.6,89,97,1.03,RU,1618703717
379,Sisimiut,66.9395,-53.6735,17.46,73,99,9.37,GL,1618703718
380,Cervo,43.6702,-7.4101,51.01,77,6,1.99,ES,1618703718
381,Qandala,11.472,49.8728,80.64,65,1,6.44,SO,1618703427
382,Lālmohan,22.3384,90.7419,79.41,78,0,7.18,BD,1618703718
383,Naryan-Mar,67.6713,53.087,8.11,89,37,6.11,RU,1618703719
384,Coihueco,-36.6167,-71.8333,64.4,68,98,8.05,CL,1618703719
385,Aksu,41.1231,80.2644,56.32,29,44,4.43,CN,1618703720
386,Abay,49.6311,72.8539,26.6,93,0,4.47,KZ,1618703720
387,Nurota,40.5614,65.6886,60.8,51,100,4.61,UZ,1618703720
388,Bedum,53.3008,6.6028,41.0,100,79,2.3,NL,1618703721
389,Barraute,48.4335,-77.6328,53.6,43,75,5.75,CA,1618703721
390,Pictou,45.6834,-62.7153,39.2,87,100,19.57,CA,1618703721
391,Samarai,-10.6167,150.6667,84.04,74,79,13.11,PG,1618703722
392,Tabatinga,-4.2525,-69.9381,80.6,89,75,1.99,BR,1618703722
393,Quatre Cocos,-20.2078,57.7625,77.0,94,75,8.05,MU,1618703722
394,Shimoda,34.6667,138.95,63.0,41,20,20.71,JP,1618703424
395,Cockburn Town,21.4612,-71.1419,78.8,78,40,5.75,TC,1618703395
396,Mount Isa,-20.7333,139.5,73.4,33,2,12.66,AU,1618703723
397,Ugoofaaru,5.6667,73.0,83.14,73,45,9.35,MV,1618703724
398,Harper,4.375,-7.7169,77.32,86,100,7.0,LR,1618703724
399,Ulaangom,49.9811,92.0667,41.72,55,7,3.09,MN,1618703724
400,Tahoua,14.8888,5.2692,84.51,11,53,4.56,NE,1618703725
401,Abhā,18.2164,42.5053,57.2,71,40,14.97,SA,1618703725
402,Necochea,-38.5473,-58.7368,66.0,88,55,8.61,AR,1618703726
403,Yumen,40.2833,97.2,51.17,15,98,2.06,CN,1618703726
404,Flin Flon,54.7682,-101.865,42.8,45,90,11.5,CA,1618703726
405,Port Hedland,-20.3167,118.5667,82.4,26,40,17.27,AU,1618703680
406,Fortuna,40.5982,-124.1573,55.0,82,1,12.66,US,1618703405
407,Roebourne,-20.7833,117.1333,83.3,40,0,11.18,AU,1618703727
408,Padang,-0.9492,100.3543,71.6,94,20,2.3,ID,1618703727
409,San Juan,-31.5375,-68.5364,76.35,49,14,8.75,AR,1618703728
410,Pervomayskiy,53.2485,40.2871,45.0,80,84,3.51,RU,1618703728
411,Torbay,47.6666,-52.7314,35.01,100,90,13.8,CA,1618703728
412,Luena,-11.7833,19.9167,59.86,76,16,4.47,AO,1618703729
413,Kanel,15.4916,-13.1763,91.4,25,0,4.61,SN,1618703729
414,Fort Nelson,58.8053,-122.7002,41.0,87,90,6.91,CA,1618703429
415,Kahului,20.8947,-156.47,80.6,61,40,14.97,US,1618703506
416,Olinda,-8.0089,-34.8553,75.2,88,75,3.44,BR,1618703730
417,Orange Cove,36.6244,-119.3137,81.0,30,8,1.99,US,1618703730
418,Barra de Tecoanapa,16.5167,-98.75,81.88,62,27,11.97,MX,1618703730
419,Artvin Province,41.1667,41.8333,59.0,72,75,11.5,TR,1618703731
420,Sechura,-5.5569,-80.8222,73.27,70,94,16.58,PE,1618703731
421,Severo-Yeniseyskiy,60.3725,93.0408,18.52,81,100,11.32,RU,1618703732
422,Hargeisa,9.56,44.065,69.89,64,95,1.19,SO,1618703732
423,Presidencia Roque Sáenz Peña,-26.7852,-60.4388,75.0,80,97,1.99,AR,1618703732
424,Bajil,15.0584,43.2851,80.26,63,45,3.98,YE,1618703733
425,Linguère,15.3953,-15.1193,91.4,18,0,6.91,SN,1618703733
426,Chernyshevskiy,63.0128,112.4714,8.8,89,100,10.6,RU,1618703733
427,Lata,40.1629,-8.3327,57.0,79,71,2.44,PT,1618703438
428,Norman Wells,65.282,-126.8329,50.0,40,20,9.22,CA,1618703734
429,Lagoa,39.05,-27.9833,60.91,91,36,18.43,PT,1618703467
430,Okitipupa,6.5047,4.7839,77.25,92,100,2.93,NG,1618703734
431,Stokmarknes,68.5646,14.9108,35.6,75,0,4.61,NO,1618703735
432,Aktobe,50.2797,57.2072,46.4,81,0,4.47,KZ,1618703735
433,Vao,-22.6667,167.4833,74.98,76,35,17.96,NC,1618703735
434,Margate,51.3813,1.3862,42.01,73,97,1.99,GB,1618703544
435,Ust'-Ilimsk,58.0006,102.6619,16.09,78,20,3.89,RU,1618703736
436,Tessalit,20.1986,1.0114,84.83,20,89,7.74,ML,1618703736
437,Noumea,-22.2763,166.4572,82.4,61,0,6.91,NC,1618703512
438,Avera,33.194,-82.5271,73.4,43,75,4.61,US,1618703737
439,Marsh Harbour,26.5412,-77.0636,77.94,74,9,9.86,BS,1618703737
440,Thunder Bay,48.4001,-89.3168,50.0,29,1,9.22,CA,1618703488
441,Port Blair,11.6667,92.75,80.64,75,45,4.47,IN,1618703738
442,Caravelas,-17.7125,-39.2481,74.07,73,85,6.11,BR,1618703467
443,Henties Bay,-22.116,14.2845,76.42,44,81,11.81,NA,1618703440
444,Kletskaya,49.3145,43.0584,45.34,71,11,5.39,RU,1618703738
445,Zhangye,38.9342,100.4517,53.02,19,57,2.42,CN,1618703739
446,Sambava,-14.2667,50.1667,76.24,85,98,5.48,MG,1618703739
447,Tiznit Province,29.5833,-9.5,61.43,67,0,3.18,MA,1618703739
448,Atar,20.5169,-13.0499,75.72,20,0,8.81,MR,1618703740
449,Ubinskoye,55.3068,79.6802,31.44,80,97,11.9,RU,1618703740
450,Maceió,-9.6658,-35.7353,78.8,83,40,2.3,BR,1618703464
451,Laas,46.6166,10.7002,37.99,69,0,5.75,IT,1618703642
452,Gibara,21.1097,-76.1317,86.0,51,0,13.8,CU,1618703741
453,Omboué,-1.5746,9.2618,78.67,89,100,5.26,GA,1618703741
454,Guayaramerín,-10.8368,-65.3614,74.95,96,99,2.44,BO,1618703478
455,Nantucket,41.2835,-70.0995,44.6,70,1,11.5,US,1618703719
456,Portland,45.5234,-122.6762,84.0,14,1,6.91,US,1618703399
457,Luwuk,-0.9516,122.7875,82.31,67,75,3.04,ID,1618703742
458,Dongsheng,39.8161,109.9776,43.48,23,0,10.02,CN,1618703742
459,Lac-Mégantic,45.5834,-70.8823,41.0,100,100,4.56,CA,1618703587
460,Neepawa,50.2289,-99.4664,60.8,27,75,13.8,CA,1618703742
461,Egvekinot,66.3167,-179.1667,28.0,98,100,13.73,RU,1618703743
462,San Cristobal,7.7669,-72.225,84.2,51,40,9.22,VE,1618703743
463,Saint Anthony,45.0205,-93.218,55.99,33,75,10.36,US,1618703743
464,Te Anau,-45.4167,167.7167,53.35,90,99,5.64,NZ,1618703744
465,Turrialba,9.9047,-83.6835,68.0,94,75,5.75,CR,1618703744
466,Haines Junction,60.7522,-137.5108,55.4,24,12,6.91,CA,1618703745
467,Sinnamary,5.3833,-52.95,78.75,78,84,15.12,GF,1618703745
468,Ngudu,-2.9667,33.3333,62.29,91,72,5.06,TZ,1618703745
469,Kadom,54.5592,42.4675,46.38,62,72,9.24,RU,1618703746
470,Kinablangan,7.6947,126.5503,82.58,71,100,1.14,PH,1618703746
471,Bulgan,48.8125,103.5347,41.72,44,27,1.28,MN,1618703746
472,Anjozorobe,-18.4,47.8667,60.8,82,75,8.05,MG,1618703747
473,Nizhneangarsk,55.7833,109.55,19.45,73,79,7.83,RU,1618703747
474,Hambantota,6.1241,81.1185,77.18,85,99,14.45,LK,1618703427
475,Hūn,29.1268,15.9477,77.94,34,87,2.86,LY,1618703747
476,Waipawa,-41.4122,175.5153,64.4,48,5,9.22,NZ,1618703748
477,Lenoir,35.2335,-77.6497,64.4,45,75,3.44,US,1618703748
478,Marigot,18.0667,-63.0833,81.0,78,20,6.91,MF,1618703749
479,Puqi,29.7167,113.8833,60.53,76,100,3.96,CN,1618703749
480,Turukhansk,65.8167,87.9833,2.21,91,100,8.48,RU,1618703428
481,Lukulu,-14.3707,23.242,63.05,57,42,8.48,ZM,1618703750
482,Coquimbo,-29.9533,-71.3436,57.2,88,75,5.75,CL,1618703750
483,Tarancón,40.0085,-3.0073,48.0,65,0,9.22,ES,1618703750
484,Beringovskiy,63.05,179.3167,32.72,98,100,12.08,RU,1618703435
485,Camacha,33.0833,-16.3333,60.8,77,40,8.05,PT,1618703751
486,Tornio,65.8481,24.1466,26.6,93,0,1.14,FI,1618703652
487,Ippy,6.2679,21.2247,74.05,58,93,6.31,CF,1618703751
488,Port-Gentil,-0.7193,8.7815,77.0,83,90,4.61,GA,1618703752
489,Constitución,-35.3333,-72.4167,55.85,88,83,3.65,CL,1618703752
490,Kirkwood,38.5834,-90.4068,59.0,55,75,8.05,US,1618703467
491,Wichita Falls,33.9137,-98.4934,55.4,50,75,10.36,US,1618703752
492,Wer,27.0,77.1667,76.96,32,29,4.07,IN,1618703753
493,Launceston,-41.45,147.1667,59.0,76,26,12.66,AU,1618703753
494,Upata,8.0086,-62.3989,86.0,64,83,3.0,VE,1618703753
495,Santa Vitória do Palmar,-33.5189,-53.3681,64.27,91,4,6.4,BR,1618703754
496,Copiapó,-27.3667,-70.3333,59.0,88,90,12.66,CL,1618703542
497,Xichang,27.8964,102.2634,60.91,72,86,1.79,CN,1618703754
498,Dhībān,35.0365,40.5167,74.71,22,28,4.63,SY,1618703754
499,Chirongui,-12.9319,45.1483,82.4,78,75,13.8,YT,1618703755
500,Pangnirtung,66.1451,-65.7125,0.1,93,73,6.78,CA,1618703755
501,Kruisfontein,-34.0033,24.7314,61.0,32,16,4.14,ZA,1618703756
502,Molina,-35.1167,-71.2833,60.01,77,93,3.44,CL,1618703756
503,Edéa,3.8,10.1333,75.2,94,75,2.3,CM,1618703756
504,Siavonga,-16.5382,28.7088,68.41,69,98,6.91,ZM,1618703757
505,Rock Springs,41.5875,-109.2029,44.6,29,1,16.11,US,1618703594
506,Rjukan,59.8789,8.5941,42.01,64,35,1.01,NO,1618703757
507,Yarke Pole,45.608,34.3172,42.48,75,39,7.52,UA,1618703757
508,Temerin,45.4086,19.8892,42.01,100,75,4.61,RS,1618703758
509,Changli,39.7042,119.1506,55.47,18,0,6.87,CN,1618703758
510,Baikunthpur,23.25,82.55,74.73,27,2,4.56,IN,1618703758
511,Moose Factory,51.2585,-80.6094,32.0,93,1,8.05,CA,1618703759
512,Nampula,-15.1165,39.2666,68.0,88,40,8.05,MZ,1618703759
513,Vanavara,60.34,102.2797,13.93,84,40,6.91,RU,1618703759
514,Tilichiki,60.4667,166.1,28.33,76,67,9.82,RU,1618703760
515,Muisne,0.6,-80.0333,77.0,82,88,3.47,EC,1618703760
516,Alugan,12.2188,125.4808,77.09,93,100,28.63,PH,1618703761
517,Goderich,43.7501,-81.7165,44.6,76,89,3.44,CA,1618703761
518,Baiyin,36.5583,104.2081,32.0,55,0,4.47,CN,1618703761
519,Akçakoca,41.0866,31.1162,51.75,93,93,5.03,TR,1618703762
520,Rūdbār,30.15,62.6,71.24,19,82,6.29,AF,1618703762
521,Mogadishu,2.0371,45.3438,82.44,73,89,9.04,SO,1618703671
522,Östersund,63.1792,14.6357,37.4,65,10,5.75,SE,1618703762
523,Alyangula,-13.8483,136.4192,82.4,61,48,5.75,AU,1618703763
524,Maniitsoq,65.4167,-52.9,7.47,75,75,15.21,GL,1618703763
525,Hamada,34.8833,132.0833,51.8,54,75,18.41,JP,1618703763
526,Butte,39.6499,-121.5677,86.0,14,1,6.91,US,1618703764
527,Parole,38.9796,-76.5305,55.4,62,1,4.99,US,1618703764
528,Bangassou,4.7413,22.8184,69.24,90,100,1.25,CF,1618703765
529,Māngrol,21.1167,70.1167,77.95,79,0,9.06,IN,1618703765
530,Karaton,-6.3424,106.1045,81.0,83,40,4.61,ID,1618703765
531,Yong’an,39.6957,113.6871,48.27,20,0,1.16,CN,1618703766
532,Arlit,18.7369,7.3853,84.69,6,98,6.24,NE,1618703766
533,Prabumulih,-3.45,104.25,72.28,97,100,2.37,ID,1618703766
534,Kusu,33.2831,131.1514,51.8,50,40,10.36,JP,1618703767
535,Wattegama,6.7989,81.4808,73.83,91,73,4.47,LK,1618703767
536,Nizwá,22.9333,57.5333,78.96,20,93,1.81,OM,1618703767
537,Ambon City,-3.6954,128.1814,84.2,74,40,3.44,ID,1618703768
538,Nerja,36.7585,-3.8873,57.99,54,1,8.01,ES,1618703768
539,Dayong,25.0209,118.2898,68.0,56,0,15.66,CN,1618703768
540,Erenhot,43.6475,111.9767,47.57,22,0,17.54,CN,1618703769
541,Pitsunda,43.1592,40.3378,51.8,93,75,2.24,GE,1618703769
542,Jiuquan,39.7432,98.5174,52.48,16,98,0.87,CN,1618703769
543,Pimentel,-6.8367,-79.9342,69.8,73,0,23.02,PE,1618703770
544,Biedenkopf,50.9167,8.5333,39.0,81,97,3.71,DE,1618703770
545,Bonney Lake,47.1771,-122.1865,81.0,15,1,3.27,US,1618703611
546,Salinópolis,-0.6136,-47.3561,78.26,85,98,10.25,BR,1618703771
547,Doha,25.2867,51.5333,78.8,22,0,6.91,QA,1618703575
548,Vila Franca do Campo,37.7167,-25.4333,62.6,94,75,6.91,PT,1618703771
549,Larap,14.299,122.6504,78.76,85,100,18.32,PH,1618703771
550,Slave Lake,55.2834,-114.769,55.4,35,90,14.97,CA,1618703772
551,Port Shepstone,-30.7414,30.455,62.42,80,18,14.47,ZA,1618703772
552,Grand-Lahou,5.1367,-5.0242,78.89,83,84,6.58,CI,1618703772
553,Balotra,25.8333,72.2333,79.52,22,12,6.06,IN,1618703773
554,Torbeyevo,54.0797,43.2473,47.01,80,92,2.48,RU,1618703773
555,Kutum,14.2,24.6667,70.81,11,21,9.44,SD,1618703774
556,Velyka Oleksandrivka,47.3197,33.3037,43.34,57,76,2.35,UA,1618703774
557,Zima,53.9202,102.0442,23.95,59,64,5.37,RU,1618703774
558,Palm Beach,26.6503,-80.4498,82.99,68,7,4.0,US,1618703775
559,Altamira,-3.2033,-52.2064,72.54,97,70,1.41,BR,1618703775
560,Barry,51.4067,-3.2694,43.0,75,65,8.05,GB,1618703591
561,Fare,-16.7,-151.0167,82.11,73,8,8.7,PF,1618703612
562,Gainesville,29.6516,-82.3248,75.2,73,75,6.91,US,1618703776
563,Kolokani,13.5728,-8.0339,83.68,44,85,7.09,ML,1618703776
564,São Miguel do Araguaia,-13.275,-50.1628,74.16,82,98,0.43,BR,1618703776
565,Caucayá,-0.1934,-74.7819,71.64,98,100,2.21,CO,1618703777
